[
  {
    "name": "Отдел по вопросам миграции Кировского района",
    "address": "Сибиряков-Гвардейцев, 64",
    "lat": 54.937583,
    "lng": 82.896292,
    "markerType": "MIA"
  },
  {
    "name": "Отдел по вопросам миграции Ленинского района",
    "address": "Костычева, 14",
    "lat": 54.98135,
    "lng": 82.875855,
    "markerType": "MIA"
  },
  {
    "name": "Отдел по вопросам миграции Окрябрьского района",
    "address": "Никитина, 70",
    "lat": 55.015015,
    "lng": 82.963953,
    "markerType": "MIA"
  },
  {
    "name": "Отдел по вопросам миграции Дерзжинского района",
    "address": "Проспект Дзержинского, 69",
    "lat": 55.059059,
    "lng": 82.981048,
    "markerType": "MIA"
  },
  {
    "name": "Отдел по вопросам миграции Заельцовского района",
    "address": "Дуси Ковальчук, 396а",
    "lat": 55.064576,
    "lng": 82.927814,
    "markerType": "MIA"
  },
  {
    "name": "Отдел по вопросам миграции Центрального района",
    "address": "Октябрьская, 10",
    "lat": 55.023676,
    "lng": 82.91195,
    "markerType": "MIA"
  },
  {
    "name": "Перевод иностранных документов",
    "address": "Сибиряков-Гвардейцев, 56",
    "lat": 54.94367,
    "lng": 82.895699,
    "markerType": "PASS_TRANSLATION"
  },
  {
    "name": "Перевод иностранных документов",
    "address": "Костычева, 1",
    "lat": 54.981469,
    "lng": 82.87696,
    "markerType": "PASS_TRANSLATION"
  },
  {
    "name": "Перевод иностранных документов",
    "address": "Проспект Карла Маркса, 30",
    "lat": 54.991966,
    "lng": 82.911941,
    "markerType": "PASS_TRANSLATION"
  },
  {
    "name": "Перевод иностранных документов",
    "address": "Красный проспект, 1",
    "lat": 55.020193,
    "lng": 82.92246,
    "markerType": "PASS_TRANSLATION"
  },
  {
    "name": "Перевод иностранных документов",
    "address": "Фрунзе 5",
    "lat": 55.036654,
    "lng": 82.916684,
    "markerType": "PASS_TRANSLATION"
  },
  {
    "name": "Перевод иностранных документов",
    "address": "Почтовый Лог, 1/1",
    "lat": 55.052087,
    "lng": 82.996921,
    "markerType": "PASS_TRANSLATION"
  },
  {
    "name": "Миграционный центр",
    "address": "Есенина 1г",
    "lat": 55.05301,
    "lng": 82.996858,
    "markerType": "MIGRATION_CENTER"
  }
]